{"zona":272,"municipio":"BERTIOGA","uf":"SP","fonte":"TSE eleitorado_local_votacao_2024","locais":[{"nrLocal":"1350","nome":"COLÉGIO CAIÇARA","endereco":"AVENIDA ANCHIETA, 3900","bairro":"MAITINGA","cep":"11251485","lat":-23.8272809,"lng":-46.1218531,"situacao":"ATIVO"},{"nrLocal":"1287","nome":"EE MARIA CELESTE PEREIRA LEITE","endereco":"AVENIDA SÃO LOURENÇO, 205","bairro":"RIVIERA","cep":"11263205","lat":-23.7967342,"lng":-45.9994259,"situacao":"ATIVO"},{"nrLocal":"1023","nome":"EE ARCHIMEDES BAVA","endereco":"RUA WASHINGTON CURVELO DE AGUIAR, S/N","bairro":"INDAIá","cep":"11250000","lat":-23.8067518,"lng":-46.0516075,"situacao":"ATIVO"},{"nrLocal":"1244","nome":"EM HILDA STRENGER RIBEIRO","endereco":"AV. ANCHIETA, 8619","bairro":"VISTA LINDA","cep":"11258428","lat":-23.8144127,"lng":-46.079724,"situacao":"ATIVO"},{"nrLocal":"1333","nome":"EM GENÉSIO SEBASTIÃO DOS SANTOS","endereco":"RUA APROVADA, 602","bairro":"chácaras","cep":"11259054","lat":-23.8020085,"lng":-46.0854144,"situacao":"ATIVO"},{"nrLocal":"1228","nome":"EE WILLIAN AURELI","endereco":"RUA CARIJÓS, S/N","bairro":"RIO DA PRAIA","cep":"11250000","lat":-23.8279309,"lng":-46.1153254,"situacao":"ATIVO"},{"nrLocal":"1325","nome":"EM JARDIM VISTA LINDA","endereco":"RUA LUIZ OTÁVIO, 200","bairro":"VISTA LINDA","cep":"11258554","lat":-23.8051264,"lng":-46.0841333,"situacao":"ATIVO"},{"nrLocal":"1279","nome":"EM DOUTOR DINO BUENO","endereco":"RUA JOSÉ RODRIGUES, 15","bairro":"CENTRO","cep":"11250126","lat":-23.851538,"lng":-46.1412352,"situacao":"BLOQUEADO"},{"nrLocal":"1015","nome":"EM DELPHINO STOCKLER DE LIMA","endereco":"RUA MANOEL DA NÓBREGA, S/N","bairro":"CENTRO","cep":"11250288","lat":-23.845925,"lng":-46.1392487,"situacao":"BLOQUEADO"},{"nrLocal":"1031","nome":"EM GOVERNADOR MÁRIO COVAS JÚNIOR","endereco":"AV. SÃO LOURENÇO, 2160","bairro":"RIVIERA","cep":"11261594","lat":-23.7939121,"lng":-46.0240412,"situacao":"ATIVO"},{"nrLocal":"1058","nome":"EM JOSÉ CARLOS BUZINARO","endereco":"PRAÇA A, 15","bairro":"GUARATUBA","cep":"11250000","lat":-23.7608309,"lng":-45.9035387,"situacao":"ATIVO"},{"nrLocal":"1236","nome":"EM JOSÉ DE OLIVEIRA SANTOS","endereco":"RUA CARDEAL EMILE BIAYENDA, 248","bairro":"RIO DA PRAIA","cep":"11256070","lat":-23.8237086,"lng":-46.1164844,"situacao":"BLOQUEADO"},{"nrLocal":"1309","nome":"EE PROFESSORA MARIA APARECIDA PINTO DE ABREU MAGNO","endereco":"RUA GENERAL OSÓRIO, 108","bairro":"CENTRO","cep":"11250000","lat":-23.8363845,"lng":-46.1372995,"situacao":"BLOQUEADO"},{"nrLocal":"1376","nome":"EM CRISTINA DOS SANTOS","endereco":"RUA DJALMA DA SILVA COIMBRA, S/N","bairro":"RIO DA PRAIA","cep":"11256230","lat":-23.8138906,"lng":-46.1156553,"situacao":"ATIVO"},{"nrLocal":"1201","nome":"EE PROFESSOR ARMANDO BELLEGARD","endereco":"RUA BARTOLOMEU FERNANDES GONÇALVES, 600","bairro":"CENTRO","cep":"11250270","lat":-23.8418784,"lng":-46.1367165,"situacao":"BLOQUEADO"},{"nrLocal":"1040","nome":"EE PRAIA DE BORACÉIA","endereco":"RUA DEPUTADO EMÍLIO JUSTO, S/N","bairro":"BORACEIA","cep":"11250000","lat":-23.7557749,"lng":-45.8541491,"situacao":"BLOQUEADO"},{"nrLocal":"1260","nome":"EM GIUSFREDO SANTINI","endereco":"RUA EPIPHANIO BAPTISTA, 66","bairro":"CENTRO","cep":"11250560","lat":-23.8282061,"lng":-46.1437788,"situacao":"BLOQUEADO"},{"nrLocal":"1341","nome":"EM PROFESSOR JOSÉ INÁCIO HORA","endereco":"RUA GENERAL OSÓRIO","bairro":"CENTRO","cep":"11250429","lat":-23.8358669,"lng":-46.1380353,"situacao":"ATIVO"},{"nrLocal":"1384","nome":"NEIM ELIZABETH REGINA APARECIDA GARCIA","endereco":"RUA MANOEL GAJO, 2650","bairro":"JARDIM VICENTE DE CARVALHO","cep":"11250597","lat":-23.8275654,"lng":-46.1436553,"situacao":"ATIVO"},{"nrLocal":"1210","nome":"EM JOSÉ ERMÍRIO DE MORAES FILHO","endereco":"RUA VICTORIO GUIDOLIM, S/N","bairro":"INDAIá","cep":"11260594","lat":-23.8161036,"lng":-46.0429163,"situacao":"ATIVO"},{"nrLocal":"1368","nome":"FABE - FACULDADE DE BERTIOGA","endereco":"AVENIDA MANOEL DA NÓBREGA, 966","bairro":"CENTRO","cep":"11250288","lat":-23.8459207,"lng":-46.1392417,"situacao":"ATIVO"},{"nrLocal":"1317","nome":"EMEIF. BORACÉIA","endereco":"RUA PROFESSOR GERALDO RODRIGUES MONTEMOR, S/N","bairro":"BORACEIA","cep":"11271165","lat":-23.7548363,"lng":-45.8510591,"situacao":"ATIVO"},{"nrLocal":"1392","nome":"JOÃO CARLOS DO ROSÁRIO LOPES","endereco":"RUA JOSÉ CARLOS PACE, S/N","bairro":"VISTA LINDA","cep":"11258449","lat":-23.8050707,"lng":-46.0836509,"situacao":"ATIVO"}],"secoes":{"193":14,"194":14,"195":14,"196":14,"197":14,"198":14,"199":14,"200":5,"201":5,"202":5,"211":5,"217":14,"226":5,"229":14,"230":5,"231":19,"235":19,"236":14,"237":14,"238":19,"239":5,"240":14,"244":14,"245":19,"256":2,"258":2,"259":5,"261":9,"262":15,"263":10,"264":8,"268":8,"270":8,"271":5,"272":15,"274":9,"275":8,"276":2,"277":8,"278":5,"279":15,"280":9,"281":8,"283":2,"284":8,"285":4,"286":3,"287":11,"289":16,"291":10,"292":9,"293":12,"294":7,"317":7,"318":1,"320":15,"321":11,"322":2,"324":16,"326":11,"330":12,"331":3,"333":19,"334":16,"335":7,"336":11,"337":4,"338":2,"340":12,"341":15,"346":10,"347":3,"348":11,"349":16,"356":12,"363":9,"368":7,"371":11,"372":15,"373":12,"374":4,"375":16,"378":11,"381":12,"382":3,"386":16,"387":15,"388":8,"389":11,"390":19,"392":10,"393":12,"394":4,"395":11,"398":19,"399":15,"404":3,"406":1,"407":8,"408":4,"410":16,"413":3,"415":12,"416":11,"418":19,"421":21,"424":10,"425":9,"427":21,"429":2,"430":4,"431":3,"432":16,"434":21,"437":3,"440":21,"441":12,"442":5,"444":3,"449":12,"450":16,"451":5,"452":14,"455":4,"456":17,"457":6,"459":9,"460":17,"461":5,"462":21,"464":4,"471":4,"472":6,"473":17,"474":20,"475":0,"476":6,"477":18,"478":13,"481":6,"482":20,"483":21,"485":0,"487":6,"488":22,"491":18,"493":20,"494":13}}